{
  "cities": [
    {
      "name": "65th Infantry, PR",
      "city": "65th Infantry",
      "county": "SAN JUAN",
      "state": "Puerto Rico",
      "state_code": "PR",
      "score": 1.0,
      "zip": "00923",
      "geo": "18.405735202247165,-66.01700741573046",
      "lat": "18.405735202247165",
      "lng": "-66.01700741573046",
      "place_id": "fd096f344c404af0629615b1b5c21117"
    },
    {
      "name": "A M F Greensboro, NC 27425",
      "city": "A M F Greensboro",
      "county": "GUILFORD",
      "state": "North Carolina",
      "state_code": "NC",
      "score": 1.0,
      "zip": "27425",
      "geo": "36.0728,-79.7939",
      "lat": "36.0728",
      "lng": "-79.7939",
      "place_id": "5f3d0dcb0bff81023e413982fb6628a6"
    },
    {
      "name": "Abbeville, LA",
      "city": "Abbeville",
      "county": "VERMILION",
      "state": "Louisiana",
      "state_code": "LA",
      "score": 1.0,
      "zip": "70510",
      "geo": "29.80630281481483,-92.18432755555557",
      "lat": "29.80630281481483",
      "lng": "-92.18432755555557",
      "place_id": "28da3a0fd1f5c7a04791f0521f6c0c80"
    },
    {
      "name": "Abercrombie, ND",
      "city": "Abercrombie",
      "county": "RICHLAND",
      "state": "North Dakota",
      "state_code": "ND",
      "score": 1.0,
      "zip": "58001",
      "geo": "46.451612,-96.730948",
      "lat": "46.451612",
      "lng": "-96.730948",
      "place_id": "4bbcbb2a3f2f93758398b5ecdc89d540"
    },
    {
      "name": "Aberdeen, KY",
      "city": "Aberdeen",
      "county": "BUTLER",
      "state": "Kentucky",
      "state_code": "KY",
      "score": 1.0,
      "zip": "42201",
      "geo": "37.2538,-86.6814",
      "lat": "37.2538",
      "lng": "-86.6814",
      "place_id": "31765a855dc30be49867505b79eea06e"
    },
    {
      "name": "Aberdeen, SD",
      "city": "Aberdeen",
      "county": "BROWN",
      "state": "South Dakota",
      "state_code": "SD",
      "score": 1.0,
      "zip": "57401",
      "geo": "45.46736503124999,-98.52616481250001",
      "lat": "45.46736503124999",
      "lng": "-98.52616481250001",
      "place_id": "0d0059304af3d1d882ba7fae358de4f2"
    },
    {
      "name": "Abernant, AL",
      "city": "Abernant",
      "county": "TUSCALOOSA",
      "state": "Alabama",
      "state_code": "AL",
      "score": 1.0,
      "zip": "35440",
      "geo": "33.2906,-87.1981",
      "lat": "33.2906",
      "lng": "-87.1981",
      "place_id": "8915ef68a4cf310c410c04cbef1b9844"
    },
    {
      "name": "Abie, NE",
      "city": "Abie",
      "county": "BUTLER",
      "state": "Nebraska",
      "state_code": "NE",
      "score": 1.0,
      "zip": "68001",
      "geo": "41.321639,-96.965816",
      "lat": "41.321639",
      "lng": "-96.965816",
      "place_id": "dd840612fb9b395832aaa29c11b7d265"
    },
    {
      "name": "Abilene, TX",
      "city": "Abilene",
      "county": "TAYLOR",
      "state": "Texas",
      "state_code": "TX",
      "score": 1.0,
      "zip": "79601",
      "geo": "32.42709475555554,-99.77604958518492",
      "lat": "32.42709475555554",
      "lng": "-99.77604958518492",
      "place_id": "638a4a632bf3a5cec26978bb595fe7a7"
    },
    {
      "name": "Abingdon, VA",
      "city": "Abingdon",
      "county": "WASHINGTON",
      "state": "Virginia",
      "state_code": "VA",
      "score": 1.0,
      "zip": "24210",
      "geo": "36.730647214285725,-82.04184442857142",
      "lat": "36.730647214285725",
      "lng": "-82.04184442857142",
      "place_id": "2ab7eeb219ecd04647983c56e3ac710e"
    },
    {
      "name": "Abington, CT",
      "city": "Abington",
      "county": "WINDHAM",
      "state": "Connecticut",
      "state_code": "CT",
      "score": 1.0,
      "zip": "06230",
      "geo": "41.8608,-72.0072",
      "lat": "41.8608",
      "lng": "-72.0072",
      "place_id": "4b9a1d609d617be31cd002af80aea9a5"
    },
    {
      "name": "Accord, MA",
      "city": "Accord",
      "county": "PLYMOUTH",
      "state": "Massachusetts",
      "state_code": "MA",
      "score": 1.0,
      "zip": "02018",
      "geo": "42.1747,-70.8845",
      "lat": "42.1747",
      "lng": "-70.8845",
      "place_id": "f532b55e1c390a6ed025b6f09f99eb1a"
    },
    {
      "name": "Accoville, WV",
      "city": "Accoville",
      "county": "LOGAN",
      "state": "West Virginia",
      "state_code": "WV",
      "score": 1.0,
      "zip": "25606",
      "geo": "37.766173,-81.785898",
      "lat": "37.766173",
      "lng": "-81.785898",
      "place_id": "29fd7ee987924e742d96e7596fbeb45a"
    },
    {
      "name": "Ace, TX",
      "city": "Ace",
      "county": "POLK",
      "state": "Texas",
      "state_code": "TX",
      "score": 1.0,
      "zip": "77326",
      "geo": "30.507737,-94.817998",
      "lat": "30.507737",
      "lng": "-94.817998",
      "place_id": "bda0e289444be3a15f19db81eab8ab34"
    },
    {
      "name": "Achille, OK",
      "city": "Achille",
      "county": "BRYAN",
      "state": "Oklahoma",
      "state_code": "OK",
      "score": 1.0,
      "zip": "74720",
      "geo": "33.838722,-96.364454",
      "lat": "33.838722",
      "lng": "-96.364454",
      "place_id": "b6ba745aa11c69ee17fab4c7be18cf14"
    },
    {
      "name": "Achilles, VA",
      "city": "Achilles",
      "county": "GLOUCESTER",
      "state": "Virginia",
      "state_code": "VA",
      "score": 1.0,
      "zip": "23001",
      "geo": "37.292271,-76.40987",
      "lat": "37.292271",
      "lng": "-76.40987",
      "place_id": "189165179229b691d51e1c8fbd68dbbf"
    },
    {
      "name": "Ackermanville, PA",
      "city": "Ackermanville",
      "county": "NORTHAMPTON",
      "state": "Pennsylvania",
      "state_code": "PA",
      "score": 1.0,
      "zip": "18010",
      "geo": "40.8392,-75.2199",
      "lat": "40.8392",
      "lng": "-75.2199",
      "place_id": "f1b904760a1bd2776e2d60efe27c1a63"
    },
    {
      "name": "Acme, MI",
      "city": "Acme",
      "county": "GRAND TRAVERSE",
      "state": "Michigan",
      "state_code": "MI",
      "score": 1.0,
      "zip": "49610",
      "geo": "44.7717,-85.5015",
      "lat": "44.7717",
      "lng": "-85.5015",
      "place_id": "8fb87c5d8729df3635db583be82dd6af"
    },
    {
      "name": "Acoma, NM",
      "city": "Acoma",
      "county": "VALENCIA",
      "state": "New Mexico",
      "state_code": "NM",
      "score": 1.0,
      "zip": "87034",
      "geo": "34.840788,-107.714004",
      "lat": "34.840788",
      "lng": "-107.714004",
      "place_id": "83391beb14adef305e09e57f36bbf98d"
    },
    {
      "name": "Acomita, NM",
      "city": "Acomita",
      "county": "VALENCIA",
      "state": "New Mexico",
      "state_code": "NM",
      "score": 1.0,
      "zip": "87034",
      "geo": "34.840788,-107.714004",
      "lat": "34.840788",
      "lng": "-107.714004",
      "place_id": "9f2d6e1537c771c6fc67de418d8ebe58"
    },
    {
      "name": "Acosta, PA",
      "city": "Acosta",
      "county": "SOMERSET",
      "state": "Pennsylvania",
      "state_code": "PA",
      "score": 1.0,
      "zip": "15520",
      "geo": "40.120255,-79.063428",
      "lat": "40.120255",
      "lng": "-79.063428",
      "place_id": "be9262e9a260319bf7d8f6b47a3ac302"
    },
    {
      "name": "Ada, OK",
      "city": "Ada",
      "county": "PONTOTOC",
      "state": "Oklahoma",
      "state_code": "OK",
      "score": 1.0,
      "zip": "74820",
      "geo": "34.82123712500002,-96.75066228124996",
      "lat": "34.82123712500002",
      "lng": "-96.75066228124996",
      "place_id": "869b57635a1e8c636d7a4084446c02ed"
    },
    {
      "name": "Adak, AK",
      "city": "Adak",
      "county": "ALEUTIANS WEST",
      "state": "Alaska",
      "state_code": "AK",
      "score": 1.0,
      "zip": "99546",
      "geo": "53.852239,-169.10070100000002",
      "lat": "53.852239",
      "lng": "-169.10070100000002",
      "place_id": "80a8a486c44df03ab3e8424495d64986"
    },
    {
      "name": "Adams Basin, NY",
      "city": "Adams Basin",
      "county": "MONROE",
      "state": "New York",
      "state_code": "NY",
      "score": 1.0,
      "zip": "14410",
      "geo": "43.192434,-77.859225",
      "lat": "43.192434",
      "lng": "-77.859225",
      "place_id": "9383d6f0c60f1d372882efabea2c3ffc"
    },
    {
      "name": "Adams, OK",
      "city": "Adams",
      "county": "TEXAS",
      "state": "Oklahoma",
      "state_code": "OK",
      "score": 1.0,
      "zip": "73901",
      "geo": "36.74013,-101.053064",
      "lat": "36.74013",
      "lng": "-101.053064",
      "place_id": "1434ab7ef2c3c99813b84471de7c20ab"
    },
    {
      "name": "Adamstown Twp, ME",
      "city": "Adamstown Twp",
      "county": "FRANKLIN",
      "state": "Maine",
      "state_code": "ME",
      "score": 1.0,
      "zip": "04964",
      "geo": "44.874401,-70.73334",
      "lat": "44.874401",
      "lng": "-70.73334",
      "place_id": "59c3299e1b980ecf1b27ab10f3701b32"
    },
    {
      "name": "Adamstown, PA",
      "city": "Adamstown",
      "county": "LANCASTER",
      "state": "Pennsylvania",
      "state_code": "PA",
      "score": 1.0,
      "zip": "19501",
      "geo": "40.243858,-76.060405",
      "lat": "40.243858",
      "lng": "-76.060405",
      "place_id": "ef654be3e549a59c8098d9afc6017c34"
    },
    {
      "name": "Adamsville, RI",
      "city": "Adamsville",
      "county": "NEWPORT",
      "state": "Rhode Island",
      "state_code": "RI",
      "score": 1.0,
      "zip": "02801",
      "geo": "41.5544,-71.1314",
      "lat": "41.5544",
      "lng": "-71.1314",
      "place_id": "7aa2373388437d42014fbfa432f0d6e2"
    },
    {
      "name": "Addington, OK",
      "city": "Addington",
      "county": "JEFFERSON",
      "state": "Oklahoma",
      "state_code": "OK",
      "score": 1.0,
      "zip": "73520",
      "geo": "34.245731,-97.892177",
      "lat": "34.245731",
      "lng": "-97.892177",
      "place_id": "63a5586909b5fe6bdf9ec0b15acbdb05"
    },
    {
      "name": "Addyston, OH",
      "city": "Addyston",
      "county": "HAMILTON",
      "state": "Ohio",
      "state_code": "OH",
      "score": 1.0,
      "zip": "45001",
      "geo": "39.137405,-84.711172",
      "lat": "39.137405",
      "lng": "-84.711172",
      "place_id": "e05802b12a284885a8db2b4000226747"
    }
  ]
}